[
  {
    "id": 1,
    "name": "assoc1",
    "description": "lorem ipsum assoc1",
    "coordinates": { "long": -0.5805, "lat": 44.8404 },
    "category": "environnement",
    "address": {
      "number": 2,
      "street": "bassin à flot",
      "postcode": 33300,
      "town": "Bordeaux",
      "country": "France"
    },
    "phoneNumber": "0685217659"
  },
  {
    "id": 2,
    "name": "assoc2",
    "description": "lorem ipsum assoc2",
    "coordinates": { "long": -0.5887078, "lat": 44.849214 },
    "category": "sante",
    "address": {
      "number": 2,
      "street": "bassin à flot",
      "postcode": 33300,
      "town": "Bordeaux",
      "country": "France"
    },
    "phoneNumber": "0685217659"
  },
  {
    "id": 3,
    "name": "assoc3",
    "description": "lorem ipsum assoc3",
    "coordinates": { "long": -0.5499503, "lat": 44.8514135 },
    "category": "environnement",
    "address": {
      "number": 2,
      "street": "bassin à flot",
      "postcode": 33300,
      "town": "Bordeaux",
      "country": "France"
    },
    "phoneNumber": "0685217659"
  },
  {
    "id": 4,
    "name": "assoc4",
    "description": "lorem ipsum assoc4",
    "coordinates": { "long": -0.5745145082473755, "lat": 44.83394241333008 },
    "category": "education",
    "address": {
      "number": 2,
      "street": "bassin à flot",
      "postcode": 33300,
      "town": "Bordeaux",
      "country": "France"
    },
    "phoneNumber": "0685217659"
  },
  {
    "id": 5,
    "name": "assoc5",
    "description": "lorem ipsum assoc5",
    "coordinates": { "long": -0.5615184903144836, "lat": 44.82335662841797 },
    "category": "developpement local",
    "address": {
      "number": 2,
      "street": "bassin à flot",
      "postcode": 33300,
      "town": "Bordeaux",
      "country": "France"
    },
    "phoneNumber": "0685217659"
  }
]
